[
    { "name": "Chhatrapati Shivaji Maharaj Terminus (CST)", "lat": 18.9398, "lng": 72.8355, "zone": "South", "type": "station" },
    { "name": "Gateway of India", "lat": 18.9220, "lng": 72.8347, "zone": "South", "type": "landmark" },
    { "name": "Marine Drive", "lat": 18.9432, "lng": 72.8236, "zone": "South", "type": "landmark" },
    { "name": "Bandra Worli Sea Link", "lat": 19.0330, "lng": 72.8165, "zone": "West", "type": "landmark" },
    { "name": "Juhu Beach", "lat": 19.0990, "lng": 72.8265, "zone": "West", "type": "landmark" },
    { "name": "Andheri Station", "lat": 19.1197, "lng": 72.8464, "zone": "West", "type": "station" },
    { "name": "Bandra Station", "lat": 19.0544, "lng": 72.8406, "zone": "West", "type": "station" },
    { "name": "Dadar Station", "lat": 19.0176, "lng": 72.8431, "zone": "Central", "type": "station" },
    { "name": "Kurla Station", "lat": 19.0659, "lng": 72.8797, "zone": "Central", "type": "station" },
    { "name": "Thane Station", "lat": 19.1871, "lng": 72.9786, "zone": "Central", "type": "station" },
    { "name": "Navi Mumbai (Vashi)", "lat": 19.0330, "lng": 73.0297, "zone": "Navi Mumbai", "type": "station" },
    { "name": "Colaba", "lat": 18.9067, "lng": 72.8147, "zone": "South", "type": "area" },
    { "name": "Churchgate", "lat": 18.9322, "lng": 72.8264, "zone": "South", "type": "station" },
    { "name": "Fort", "lat": 18.9339, "lng": 72.8350, "zone": "South", "type": "area" },
    { "name": "Nariman Point", "lat": 18.9253, "lng": 72.8243, "zone": "South", "type": "area" },
    { "name": "Worli", "lat": 19.0134, "lng": 72.8149, "zone": "South", "type": "area" },
    { "name": "Lower Parel", "lat": 18.9988, "lng": 72.8301, "zone": "Central", "type": "station" },
    { "name": "Prabhadevi", "lat": 19.0147, "lng": 72.8295, "zone": "Central", "type": "station" },
    { "name": "Mahalaxmi", "lat": 18.9826, "lng": 72.8226, "zone": "South", "type": "station" },
    { "name": "Mumbai Central", "lat": 18.9685, "lng": 72.8195, "zone": "Central", "type": "station" },
    { "name": "Grant Road", "lat": 18.9636, "lng": 72.8159, "zone": "South", "type": "station" },
    { "name": "Charni Road", "lat": 18.9539, "lng": 72.8195, "zone": "South", "type": "station" },
    { "name": "Vile Parle", "lat": 19.0992, "lng": 72.8438, "zone": "West", "type": "station" },
    { "name": "Santacruz", "lat": 19.0822, "lng": 72.8411, "zone": "West", "type": "station" },
    { "name": "Khar", "lat": 19.0707, "lng": 72.8376, "zone": "West", "type": "station" },
    { "name": "Borivali", "lat": 19.2304, "lng": 72.8571, "zone": "North", "type": "station" },
    { "name": "Kandivali", "lat": 19.2072, "lng": 72.8505, "zone": "North", "type": "station" },
    { "name": "Malad", "lat": 19.1860, "lng": 72.8487, "zone": "North", "type": "station" },
    { "name": "Goregaon", "lat": 19.1663, "lng": 72.8489, "zone": "North", "type": "station" },
    { "name": "Jogeshwari", "lat": 19.1358, "lng": 72.8493, "zone": "North", "type": "station" },
    { "name": "Powai", "lat": 19.1176, "lng": 72.9060, "zone": "North", "type": "area" },
    { "name": "Ghatkopar", "lat": 19.0866, "lng": 72.9081, "zone": "Central", "type": "station" },
    { "name": "Vikhroli", "lat": 19.1135, "lng": 72.9254, "zone": "Central", "type": "station" },
    { "name": "Mulund", "lat": 19.1726, "lng": 72.9565, "zone": "Central", "type": "station" },
    { "name": "BKC (Bandra Kurla Complex)", "lat": 19.0640, "lng": 72.8697, "zone": "West", "type": "area" },
    { "name": "Chembur", "lat": 19.0633, "lng": 72.8997, "zone": "East", "type": "station" },
    { "name": "Wadala", "lat": 19.0167, "lng": 72.8584, "zone": "Central", "type": "station" },
    { "name": "Sion", "lat": 19.0433, "lng": 72.8632, "zone": "Central", "type": "station" },
    { "name": "Matunga", "lat": 19.0259, "lng": 72.8521, "zone": "Central", "type": "station" },
    { "name": "Mahim", "lat": 19.0377, "lng": 72.8399, "zone": "Central", "type": "station" }
]